[
  {
    "id": 1,
    "name": "Siddharth Dash",
    "lat": 17.406,
    "lng": -78.477,
    "picture": "/images/male.png",
    "batch": "2011"
  },
  {
    "id": 2,
    "name": "Yogesh Chopra",
    "lat": 47.606,
    "lng": 122.333,
    "picture": "/images/male.png",
    "batch": "2013"
  },
  {
    "id": 3,
    "name": "Naveen Jafer",
    "lat": 42.376,
    "lng": 72.519,
    "picture": "/images/male.png",
    "batch": "2013"
  },
  {
    "id": 4,
    "name": "Yash Raj",
    "lat": 18.958,
    "lng": 72.832,
    "picture": "/images/male.png",
    "batch": "2013"
  },
  {
    "id": 5,
    "name": "Manoj Gottipati",
    "lat": 33.75,
    "lng": 84.388,
    "picture": "/images/male.png",
    "batch": "2013"
  },
  {
    "id": 6,
    "name": "Rishabh Pokharna",
    "lat": 12.963,
    "lng": -77.578,
    "picture": "/images/male.png",
    "batch": "2014"
  },
  {
    "id": 7,
    "name": "Shrey Bansal",
    "lat": 28.46,
    "lng": -77.027,
    "picture": "/images/male.png",
    "batch": "2014"
  },
  {
    "id": 8,
    "name": "Poojitha Reddy",
    "lat": 12.9716,
    "lng": 77.5946,
    "picture": "/images/male.png",
    "batch": "2014"
  },
  {
    "id": 9,
    "name": "Wajeeha Fatima",
    "lat": 37.354,
    "lng": 121.955,
    "picture": "/images/male.png",
    "batch": "2014"
  },
  {
    "id": 10,
    "name": "Srimanta Barua",
    "lat": 37.3382,
    "lng": -121.8863,
    "picture": "/images/male.png",
    "batch": "2014"
  },
  {
    "id": 11,
    "name": "Anirud Samala",
    "lat": 37.3382,
    "lng": -121.8863,
    "picture": "/images/male.png",
    "batch": "2014"
  },
  {
    "id": 12,
    "name": "Avi Jain",
    "lat": 40.7128,
    "lng": -74.006,
    "picture": "/images/male.png",
    "batch": "2014"
  },
  {
    "id": 13,
    "name": "Neel Shah",
    "lat": 40.712,
    "lng": 74.006,
    "picture": "/images/male.png",
    "batch": "2014"
  },
  {
    "id": 14,
    "name": "Sai Rajiv Krishna S",
    "lat": 37.3541,
    "lng": -121.9552,
    "picture": "/images/male.png",
    "batch": "2014"
  },
  {
    "id": 15,
    "name": "Dinesh G",
    "lat": 37.4419,
    "lng": -122.143,
    "picture": "/images/male.png",
    "batch": "2014"
  },
  {
    "id": 16,
    "name": "Aditya V Padalkar",
    "lat": 37.453,
    "lng": -122.1817,
    "picture": "/images/male.png",
    "batch": "2014"
  },
  {
    "id": 17,
    "name": "Pavan Bhamidipati",
    "lat": 37.7749,
    "lng": -122.4194,
    "picture": "/images/male.png",
    "batch": "2014"
  },
  {
    "id": 18,
    "name": "Dinesh Kumar G",
    "lat": 37.4419,
    "lng": -122.143,
    "picture": "/images/male.png",
    "batch": "2014"
  },
  {
    "id": 19,
    "name": "Sumanth Dadi",
    "lat": 17.385,
    "lng": 78.4867,
    "picture": "/images/male.png",
    "batch": "2014"
  },
  {
    "id": 20,
    "name": "Tushar Aggarwal",
    "lat": 47.606,
    "lng": 122.333,
    "picture": "/images/male.png",
    "batch": "2015"
  },
  {
    "id": 21,
    "name": "Rishi Kaushik",
    "lat": 12.962,
    "lng": -77.577,
    "picture": "/images/male.png",
    "batch": "2015"
  },
  {
    "id": 22,
    "name": "Arnav Dhamija",
    "lat": 47.606,
    "lng": 122.333,
    "picture": "/images/male.png",
    "batch": "2015"
  },
  {
    "id": 23,
    "name": "Niteesh Bharadwaj",
    "lat": 40.7608,
    "lng": -111.891,
    "picture": "/images/male.png",
    "batch": "2015"
  },
  {
    "id": 24,
    "name": "Parnika De",
    "lat": 37.3861,
    "lng": -122.0839,
    "picture": "/images/male.png",
    "batch": "2015"
  },
  {
    "id": 25,
    "name": "Abhishek Bhatia",
    "lat": 18.5204,
    "lng": 73.8567,
    "picture": "/images/male.png",
    "batch": "2015"
  },
  {
    "id": 26,
    "name": "Subham Mittal",
    "lat": 17.385,
    "lng": 78.4867,
    "picture": "/images/male.png",
    "batch": "2015"
  },
  {
    "id": 27,
    "name": "Naman Bansal",
    "lat": 17.385,
    "lng": 78.4867,
    "picture": "/images/male.png",
    "batch": "2015"
  },
  {
    "id": 28,
    "name": "Roshan Babu",
    "lat": 40.713,
    "lng": 74.006,
    "picture": "/images/male.png",
    "batch": "2015"
  },
  {
    "id": 29,
    "name": "Keyur Jain",
    "lat": 17.407,
    "lng": 78.477,
    "picture": "/images/male.png",
    "batch": "2015"
  },
  {
    "id": 30,
    "name": "Nishant Singh",
    "lat": 12.9716,
    "lng": 77.5946,
    "picture": "/images/male.png",
    "batch": "2015"
  },
  {
    "id": 31,
    "name": "Chirag Gandhi",
    "lat": 51.5074,
    "lng": -0.1278,
    "picture": "/images/male.png",
    "batch": "2016"
  },
  {
    "id": 32,
    "name": "Naveen Shaji",
    "lat": 17.385,
    "lng": 78.4867,
    "picture": "/images/male.png",
    "batch": "2016"
  },
  {
    "id": 33,
    "name": "Ashutosh Modi",
    "lat": 17.385,
    "lng": 78.4867,
    "picture": "/images/male.png",
    "batch": "2016"
  },
  {
    "id": 34,
    "name": "Prateeksha Rotti",
    "lat": 32.7157,
    "lng": -117.1611,
    "picture": "/images/male.png",
    "batch": "2016"
  },
  {
    "id": 35,
    "name": "Akshay Gadre",
    "lat": 52.52,
    "lng": 13.405,
    "picture": "/images/male.png",
    "batch": "2016"
  },
  {
    "id": 36,
    "name": "Sai Vineeth",
    "lat": 17.385,
    "lng": 78.4867,
    "picture": "/images/male.png",
    "batch": "2016"
  },
  {
    "id": 37,
    "name": "Chaitanya K S",
    "lat": 28.5355,
    "lng": 77.391,
    "picture": "/images/male.png",
    "batch": "2016"
  },
  {
    "id": 38,
    "name": "Meghan Desai",
    "lat": 47.6062,
    "lng": -122.3321,
    "picture": "/images/male.png",
    "batch": "2016"
  },
  {
    "id": 39,
    "name": "Ananya K",
    "lat": 12.9716,
    "lng": 77.5946,
    "picture": "/images/male.png",
    "batch": "2016"
  },
  {
    "id": 40,
    "name": "Nishith Bhaskar",
    "lat": 19.076,
    "lng": 72.8777,
    "picture": "/images/male.png",
    "batch": "2016"
  },
  {
    "id": 41,
    "name": "Varun Ramamurthy",
    "lat": 28.6139,
    "lng": 77.209,
    "picture": "/images/male.png",
    "batch": "2016"
  },
  {
    "id": 42,
    "name": "Harshavardhana S",
    "lat": 12.9716,
    "lng": 77.5946,
    "picture": "/images/male.png",
    "batch": "2016"
  },
  {
    "id": 43,
    "name": "T Shaswati",
    "lat": 12.9716,
    "lng": 77.5946,
    "picture": "/images/male.png",
    "batch": "2016"
  },
  {
    "id": 44,
    "name": "Karnivishnu",
    "lat": 12.9716,
    "lng": 77.5946,
    "picture": "/images/male.png",
    "batch": "2016"
  },
  {
    "id": 45,
    "name": "Meghana",
    "lat": 47.6062,
    "lng": -122.3321,
    "picture": "/images/male.png",
    "batch": "2016"
  },
  {
    "id": 46,
    "name": "Gaddam Vineeth",
    "lat": 17.385,
    "lng": 78.4867,
    "picture": "/images/male.png",
    "batch": "2016"
  },
  {
    "id": 47,
    "name": "Aditya Sharma",
    "lat": 28.6139,
    "lng": 77.209,
    "picture": "/images/male.png",
    "batch": "2016"
  },
  {
    "id": 48,
    "name": "Yash Patel",
    "lat": 17.385,
    "lng": 78.4867,
    "picture": "/images/male.png",
    "batch": "2017"
  },
  {
    "id": 49,
    "name": "Rajat Singhal",
    "lat": 26.4499,
    "lng": 80.3319,
    "picture": "/images/male.png",
    "batch": "2017"
  },
  {
    "id": 50,
    "name": "Mansi Patel",
    "lat": 40.4406,
    "lng": -79.9959,
    "picture": "/images/male.png",
    "batch": "2017"
  },
  {
    "id": 51,
    "name": "Pawan Gupta",
    "lat": 12.9716,
    "lng": 77.5946,
    "picture": "/images/male.png",
    "batch": "2017"
  },
  {
    "id": 52,
    "name": "Surya S",
    "lat": 42.444,
    "lng": -76.5019,
    "picture": "/images/male.png",
    "batch": "2017"
  },
  {
    "id": 53,
    "name": "Manasa M",
    "lat": 40.7128,
    "lng": -74.006,
    "picture": "/images/male.png",
    "batch": "2017"
  },
  {
    "id": 54,
    "name": "Siddharth Ramamurthy",
    "lat": 37.563,
    "lng": -122.3255,
    "picture": "/images/male.png",
    "batch": "2017"
  },
  {
    "id": 55,
    "name": "Prateek Balasundar",
    "lat": 42.3601,
    "lng": -71.0589,
    "picture": "/images/male.png",
    "batch": "2017"
  },
  {
    "id": 56,
    "name": "Aditya Srinivasan",
    "lat": 42.3601,
    "lng": -71.0589,
    "picture": "/images/male.png",
    "batch": "2017"
  },
  {
    "id": 57,
    "name": "Prajay B",
    "lat": 17.385,
    "lng": 78.4867,
    "picture": "/images/male.png",
    "batch": "2017"
  },
  {
    "id": 58,
    "name": "Yash Patel",
    "lat": 17.385,
    "lng": 78.4867,
    "picture": "/images/male.png",
    "batch": "2017"
  },
  {
    "id": 59,
    "name": "Niyati S",
    "lat": 33.6846,
    "lng": -117.8265,
    "picture": "/images/male.png",
    "batch": "2017"
  },
  {
    "id": 60,
    "name": "Soumya Suman",
    "lat": 47.6062,
    "lng": -122.3321,
    "picture": "/images/male.png",
    "batch": "2017"
  },
  {
    "id": 61,
    "name": "Siddarth Ramamurthy",
    "lat": 37.563,
    "lng": -122.3255,
    "picture": "/images/male.png",
    "batch": "2017"
  },
  {
    "id": 62,
    "name": "Siddhant Jain",
    "lat": 12.9716,
    "lng": 77.5946,
    "picture": "/images/male.png",
    "batch": "2017"
  },
  {
    "id": 63,
    "name": "Yash Patel",
    "lat": 17.385,
    "lng": 78.4867,
    "picture": "/images/male.png",
    "batch": "2017"
  },
  {
    "id": 64,
    "name": "Meghan",
    "lat": 47.6062,
    "lng": -122.3321,
    "picture": "/images/male.png",
    "batch": "2017"
  },
  {
    "id": 65,
    "name": "Ananya",
    "lat": 12.9716,
    "lng": 77.5946,
    "picture": "/images/male.png",
    "batch": "2017"
  },
  {
    "id": 66,
    "name": "Varun Ramamurthy",
    "lat": 28.6139,
    "lng": 77.209,
    "picture": "/images/male.png",
    "batch": "2017"
  },
  {
    "id": 67,
    "name": "Ananya K",
    "lat": 12.9716,
    "lng": 77.5946,
    "picture": "/images/male.png",
    "batch": "2017"
  },
  {
    "id": 68,
    "name": "Prajay B",
    "lat": 17.385,
    "lng": 78.4867,
    "picture": "/images/male.png",
    "batch": "2017"
  },
  {
    "id": 69,
    "name": "Anubhav Saxena",
    "lat": 17.385,
    "lng": 78.4867,
    "picture": "/images/male.png",
    "batch": "2018"
  },
  {
    "id": 70,
    "name": "Vamshi Krishna",
    "lat": 12.9716,
    "lng": 77.5946,
    "picture": "/images/male.png",
    "batch": "2018"
  },
  {
    "id": 71,
    "name": "T Shaswati",
    "lat": 40.9412,
    "lng": -73.8271,
    "picture": "/images/male.png",
    "batch": "2018"
  },
  {
    "id": 72,
    "name": "Aman Shrivastava",
    "lat": 12.9716,
    "lng": 77.5946,
    "picture": "/images/male.png",
    "batch": "2018"
  },
  {
    "id": 73,
    "name": "Akshay Gadre",
    "lat": 52.52,
    "lng": 13.405,
    "picture": "/images/male.png",
    "batch": "2018"
  },
  {
    "id": 74,
    "name": "Siddharth Agarwal",
    "lat": 12.9716,
    "lng": 77.5946,
    "picture": "/images/male.png",
    "batch": "2018"
  },
  {
    "id": 75,
    "name": "Aditya Sharma",
    "lat": 47.674,
    "lng": -122.1215,
    "picture": "/images/male.png",
    "batch": "2018"
  },
  {
    "id": 76,
    "name": "Sai Vineeth",
    "lat": 30.2672,
    "lng": -97.7431,
    "picture": "/images/male.png",
    "batch": "2018"
  },
  {
    "id": 77,
    "name": "Prateeksha Rotti",
    "lat": 32.7157,
    "lng": -117.1611,
    "picture": "/images/male.png",
    "batch": "2018"
  },
  {
    "id": 78,
    "name": "Prajay B",
    "lat": 17.385,
    "lng": 78.4867,
    "picture": "/images/male.png",
    "batch": "2018"
  },
  {
    "id": 79,
    "name": "Siddarth Ramamurthy",
    "lat": 37.563,
    "lng": -122.3255,
    "picture": "/images/male.png",
    "batch": "2018"
  },
  {
    "id": 80,
    "name": "Aditya Padalkar",
    "lat": 37.453,
    "lng": -122.1817,
    "picture": "/images/male.png",
    "batch": "2018"
  },
  {
    "id": 81,
    "name": "Soumya Suman",
    "lat": 47.6062,
    "lng": -122.3321,
    "picture": "/images/male.png",
    "batch": "2018"
  },
  {
    "id": 82,
    "name": "Deepanjan",
    "lat": 12.9716,
    "lng": 77.5946,
    "picture": "/images/male.png",
    "batch": "2018"
  },
  {
    "id": 83,
    "name": "Manasa M",
    "lat": 40.7128,
    "lng": -74.006,
    "picture": "/images/male.png",
    "batch": "2018"
  },
  {
    "id": 84,
    "name": "Prateeksha Rotti",
    "lat": 32.7157,
    "lng": -117.1611,
    "picture": "/images/male.png",
    "batch": "2018"
  },
  {
    "id": 85,
    "name": "Prateeksha Rotti",
    "lat": 32.7157,
    "lng": -117.1611,
    "picture": "/images/male.png",
    "batch": "2018"
  },
  {
    "id": 86,
    "name": "Aditya Srinivasan",
    "lat": 42.3601,
    "lng": -71.0589,
    "picture": "/images/male.png",
    "batch": "2018"
  },
  {
    "id": 87,
    "name": "Vamsi",
    "lat": 12.9716,
    "lng": 77.5946,
    "picture": "/images/male.png",
    "batch": "2018"
  },
  {
    "id": 88,
    "name": "Subham Mittal",
    "lat": 17.385,
    "lng": 78.4867,
    "picture": "/images/male.png",
    "batch": "2018"
  },
  {
    "id": 89,
    "name": "Anirud Samala",
    "lat": 37.3382,
    "lng": -121.8863,
    "picture": "/images/male.png",
    "batch": "2018"
  },
  {
    "id": 90,
    "name": "Bhavya Jain",
    "lat": 37.7749,
    "lng": -122.4194,
    "picture": "/images/male.png",
    "batch": "2020"
  },
  {
    "id": 91,
    "name": "Prakhar Sahu",
    "lat": 12.9716,
    "lng": 77.5946,
    "picture": "/images/male.png",
    "batch": "2020"
  },
  {
    "id": 92,
    "name": "Kartikeya Jain",
    "lat": 12.9716,
    "lng": 77.5946,
    "picture": "/images/male.png",
    "batch": "2020"
  },
  {
    "id": 93,
    "name": "Harsh Raj",
    "lat": 40.6782,
    "lng": -73.9442,
    "picture": "/images/male.png",
    "batch": "2020"
  },
  {
    "id": 94,
    "name": "Karnivishnu",
    "lat": 47.6101,
    "lng": -122.2015,
    "picture": "/images/male.png",
    "batch": "2020"
  },
  {
    "id": 95,
    "name": "Anubhav Saxena",
    "lat": 53.3498,
    "lng": -6.2603,
    "picture": "/images/male.png",
    "batch": "2020"
  },
  {
    "id": 96,
    "name": "Yash Patel",
    "lat": 17.385,
    "lng": 78.4867,
    "picture": "/images/male.png",
    "batch": "2020"
  },
  {
    "id": 97,
    "name": "Prajay B",
    "lat": 41.8781,
    "lng": -87.6298,
    "picture": "/images/male.png",
    "batch": "2020"
  },
  {
    "id": 98,
    "name": "Prateeksha Rotti",
    "lat": 32.7157,
    "lng": -117.1611,
    "picture": "/images/male.png",
    "batch": "2020"
  },
  {
    "id": 99,
    "name": "Anubhav Saxena",
    "lat": 53.3498,
    "lng": -6.2603,
    "picture": "/images/male.png",
    "batch": "2020"
  },
  {
    "id": 100,
    "name": "Prajay B",
    "lat": 1.3521,
    "lng": 103.8198,
    "picture": "/images/male.png",
    "batch": "2020"
  },
  {
    "id": 101,
    "name": "Yash Patel",
    "lat": 17.385,
    "lng": 78.4867,
    "picture": "/images/male.png",
    "batch": "2020"
  },
  {
    "id": 102,
    "name": "Prateeksha Rotti",
    "lat": 32.7157,
    "lng": -117.1611,
    "picture": "/images/male.png",
    "batch": "2020"
  },
  {
    "id": 103,
    "name": "Prateeksha Rotti",
    "lat": 32.7157,
    "lng": -117.1611,
    "picture": "/images/male.png",
    "batch": "2020"
  },
  {
    "id": 104,
    "name": "Siddharth Agarwal",
    "lat": 12.9716,
    "lng": 77.5946,
    "picture": "/images/male.png",
    "batch": "2020"
  },
  {
    "id": 105,
    "name": "Aditya Srinivasan",
    "lat": 42.3601,
    "lng": -71.0589,
    "picture": "/images/male.png",
    "batch": "2020"
  },
  {
    "id": 106,
    "name": "Anubhav Saxena",
    "lat": 53.3498,
    "lng": -6.2603,
    "picture": "/images/male.png",
    "batch": "2020"
  },
  {
    "id": 107,
    "name": "Prateeksha Rotti",
    "lat": 32.7157,
    "lng": -117.1611,
    "picture": "/images/male.png",
    "batch": "2020"
  },
  {
    "id": 108,
    "name": "Kartikeya Jain",
    "lat": 12.9716,
    "lng": 77.5946,
    "picture": "/images/male.png",
    "batch": "2020"
  },
  {
    "id": 109,
    "name": "Anirud Samala",
    "lat": 37.3382,
    "lng": -121.8863,
    "picture": "/images/male.png",
    "batch": "2020"
  },
  {
    "id": 110,
    "name": "Karnivishnu",
    "lat": 47.6101,
    "lng": -122.2015,
    "picture": "/images/male.png",
    "batch": "2020"
  },
  {
    "id": 111,
    "name": "Anirud Samala",
    "lat": 37.3382,
    "lng": -121.8863,
    "picture": "/images/male.png",
    "batch": "2020"
  },
  {
    "id": 112,
    "name": "Aditya Srinivasan",
    "lat": 42.3601,
    "lng": -71.0589,
    "picture": "/images/male.png",
    "batch": "2020"
  },
  {
    "id": 113,
    "name": "Prakhar Sahu",
    "lat": 12.9716,
    "lng": 77.5946,
    "picture": "/images/male.png",
    "batch": "2020"
  },
  {
    "id": 114,
    "name": "Kartikeya Jain",
    "lat": 12.9716,
    "lng": 77.5946,
    "picture": "/images/male.png",
    "batch": "2020"
  },
  {
    "id": 115,
    "name": "Aditya Sharma",
    "lat": 47.674,
    "lng": -122.1215,
    "picture": "/images/male.png",
    "batch": "2020"
  },
  {
    "id": 116,
    "name": "Harsh Raj",
    "lat": 40.6782,
    "lng": -73.9442,
    "picture": "/images/male.png",
    "batch": "2020"
  }
]