[
  {
    "id": 1,
    "name": "Bhavya Jain",
    "lat": 37.7749,
    "lng": -122.4194,
    "picture": "/images/male.png",
    "batch": "2020"
  },
  {
    "id": 2,
    "name": "Siddharth Dash",
    "lat": 17.406,
    "lng": -78.477,
    "picture": "/images/male.png",
    "batch": "2011"
  },
  {
    "id": 3,
    "name": "Yogesh Chopra",
    "lat": 47.606,
    "lng": 122.333,
    "picture": "/images/male.png",
    "batch": "2013"
  },
  {
    "id": 4,
    "name": "Naveen Jafer",
    "lat": 42.376,
    "lng": 72.519,
    "picture": "/images/male.png",
    "batch": "2013"
  },
  {
    "id": 5,
    "name": "Yash Raj",
    "lat": 18.958,
    "lng": 72.832,
    "picture": "/images/male.png",
    "batch": "2013"
  },
  {
    "id": 6,
    "name": "Manoj Gottipati",
    "lat": 33.750,
    "lng": 84.388,
    "picture": "/images/male.png",
    "batch": "2013"
  },
  {
    "id": 7,
    "name": "Tushar Aggarwal",
    "lat": 47.606,
    "lng": 122.333,
    "picture": "/images/male.png",
    "batch": "2015"
  },
  {
    "id": 8,
    "name": "Rishi Kaushik",
    "lat": 12.962,
    "lng": -77.577,
    "picture": "/images/male.png",
    "batch": "2015"
  },
  {
    "id": 9,
    "name": "Neel Shah",
    "lat": 40.712,
    "lng": 74.006,
    "picture": "/images/male.png",
    "batch": "2014"
  },
  {
    "id": 10,
    "name": "Rishabh Pokharna",
    "lat":  12.963,
    "lng": -77.578,
    "picture": "/images/male.png",
    "batch": "2014"
  },
  {
    "id": 11,
    "name": "Shrey Bansal",
    "lat": 28.460,
    "lng": -77.027,
    "picture": "/images/male.png",
    "batch": "2014"
  },
  {
    "id": 12,
    "name": "Wajeeha Fatima",
    "lat": 37.354,
    "lng":  121.955,
    "picture": "/images/male.png",
    "batch": "2014"
  },
  {
    "id": 13,
    "name": "Arnav Dhamija",
    "lat": 47.606,
    "lng": 122.333,
    "picture": "/images/male.png",
    "batch": "2015"
  },
  {
    "id": 14,
    "name": "Roshan Babu",
    "lat": 40.713,
    "lng": 74.006,
    "picture": "/images/male.png",
    "batch": "2015"
  },
  {
    "id": 15,
    "name": "Keyur Jain",
    "lat": 17.407,
    "lng": 78.477,
    "picture": "/images/male.png",
    "batch": "2015"
  }
]
